{
  "type": "FeatureCollection",
  "features": [
    {
      "type": "Feature",
      "properties": {
        "name": "Miljøloftet (kontor Framtiden i Våre Hender Nord)",
        "category": "tools",
        "website": "https://www.framtidennord.no/",
        "address": "Storgata 88",
        "city": "9008 Tromsø"
      },
      "geometry": {
        "type": "Point",
        "coordinates": [
          18.956983,
          69.650837
        ]
      }
    },
    {
      "type": "Feature",
      "properties": {
        "name": "Det Grønne Rom (Fiksekveld og utstillinger)",
        "category": "tools",
        "address": "Samuel Arnesens gate 5",
        "city": "9008 Tromsø",
        "website": "https://www.framtidennord.no/"
      },
      "geometry": {
        "type": "Point",
        "coordinates": [
          18.960290,
          69.647336
        ]
      }
    },
    {
      "type": "Feature",
      "properties": {
        "name": "pust.kafé",
        "category": "food",
        "website": "https://www.kafe.pust.io/",
        "address": "Skippergata 1C",
        "city": "9008 Tromsø"
      },
      "geometry": {
        "type": "Point",
        "coordinates": [
          18.96051,
          69.65217
        ]
      }
    },
    {
      "type": "Feature",
      "properties": {
        "name": "Bike Kitchen",
        "category": "bike",
        "website": "https://www.facebook.com/profile.php?id=100068874124114",
        "address": "Strandvegen 50",
        "city": "9007 Tromsø"
      },
      "geometry": {
        "type": "Point",
        "coordinates": [
          18.94056,
          69.64099
        ]
      }
    },
    {
      "type": "Feature",
      "properties": {
        "name": "Tromsø Skomakerverksted",
        "category": "tools",
        "website": "http://tromsoskomakerverksted.no/",
        "address": "Strandgata 34",
        "city": "9008 Tromsø"
      },
      "geometry": {
        "type": "Point",
        "coordinates": [
          18.95600,
          69.64804
        ]
      }
    },
    {
      "type": "Feature",
      "properties": {
        "name": "Steget Videre Skomakeri",
        "category": "tools",
        "website": "https://stegetvidere.no/",
        "address": "Storgata 81",
        "city": "9008 Tromsø"
      },
      "geometry": {
        "type": "Point",
        "coordinates": [
          18.95832,
          69.65071
        ]
      }
    },
    {
      "type": "Feature",
      "properties": {
        "name": "Clas Ohlson verktøyutlån Jekta",
        "category": "tools",
        "website": "https://www.uteleiehosclas.no/",
        "address": "Stovner Senter 3",
        "city": "9015 Tromsø"
      },
      "geometry": {
        "type": "Point",
        "coordinates": [
          18.92072,
          69.67437
        ]
      }
    },
    {
      "type": "Feature",
      "properties": {
        "name": "TURBO utlån av sportsutstyr",
        "category": "sports",
        "website": "https://www.facebook.com/TromsoTurutstyr",
        "address": "Grønnegata 94",
        "city": "9008 Tromsø"
      },
      "geometry": {
        "type": "Point",
        "coordinates": [
          18.95549,
          69.65092
        ]
      }
    },
        {
      "type": "Feature",
      "properties": {
        "name": "BaseCamp Tromsø (ski- og sykkelreparatør)",
        "category": "sports",
        "city": "9007 Tromsø",
        "address": "Mellomvegen 16",
        "website": "https://www.facebook.com/basecamptromso/"
      },
      "geometry": {
        "coordinates": [18.9486, 69.64704],
        "type": "Point"
      }
    },
	
	  {
      "type": "Feature",
      "properties": {
        "name": "UFF Second Hand Tromsø",
        "category": "clothes",
        "website": "http://uffnorge.org/",
        "address": "Storgata 41",
        "city": "9008 Tromsø"
      },
      "geometry": {
        "type": "Point",
        "coordinates": [
          18.95335,
          69.64714
        ]
      }
    },
	
	
	  {
      "type": "Feature",
      "properties": {
        "name": "Gjenbruken Tromsø (NLM Second Hand)",
        "category": "clothes",
        "website": "https://gjenbruken.no/tromso/",
        "address": "Strandgata 5",
        "city": "9008 Tromsø"
      },
      "geometry": {
        "type": "Point",
        "coordinates": [
          18.95318,
          69.64613 
        ]
      }
    },
	
	
	  {
      "type": "Feature",
      "properties": {
        "name": "Remiks Bruktbutikk / Bli Rebell",
        "category": "clothes",
        "website": "https://www.blirebell.no/",
        "address": "Kvaløyvegen 329",
        "city": "9016 Tromsø"
      },
      "geometry": {
        "type": "Point",
        "coordinates": [
          18.92001,
          69.66931
        ]
      }
    },
	
	
	  {
      "type": "Feature",
      "properties": {
        "name": "Tromsø Bruktbokhandel",
        "category": "clothes",
        "website": "https://www.facebook.com/Troms%C3%B8-Bruktbokhandel-478411402273244/",
        "address": "Kirkegata 6 (til venstre bak City to Summit)",
        "city": "9008 Tromsø"
      },
      "geometry": {
        "type": "Point",
        "coordinates": [
          18.95644,
          69.64827 
        ]
      }
    },
	
	
	  {
      "type": "Feature",
      "properties": {
        "name": "OmMøblert",
        "category": "clothes",
        "website": "http://www.ommoblert.no/",
        "address": "Skippergata 35-39, Inngang fra, Otto Sverdrups gate",
        "city": "9008 Tromsø"
      },
      "geometry": {
        "type": "Point",
        "coordinates": [
          18.96485,
          69.65589
        ]
      }
    },
	
	
	  {
      "type": "Feature",
      "properties": {
        "name": "Edel Antikk og Vintage",
        "category": "clothes",
        "website": " ",
        "address": "Storgata 62",
        "city": "9008 Tromsø"
      },
      "geometry": {
        "type": "Point",
        "coordinates": [
          18.95500,
          69.64905 
        ]
      }
    },
	
	
	  {
      "type": "Feature",
      "properties": {
        "name": "Postludium - bruktbutikk, gjør diverse syjobber som reparasjon, opplegging osv. Overskudd går til bymisjonen",
        "category": "clothes",
        "website": "https://kirkensbymisjon.no/gjenbruksbutikken-postludium/",
        "address": "Skippergata 4 A",
        "city": "9008 Tromsø"
      },
      "geometry": {
        "type": "Point",
        "coordinates": [
          18.96034,
          69.65279
        ]
      }
    }
	
	
	
  ]
}
